{
  "events": [
    {
      "event": "GITEX Global 2025",
      "date": "2025-10-13",
      "city": "Dubai",
      "country": "UAE",
      "themes": ["AI", "Technology", "Cloud", "Cyber"],
      "lat": 25.2048,
      "lng": 55.2708,
      "Link": "https://www.gitex.com/"
    },
    {
      "event": "World AI Cannes Festival (WAICF) 2025",
      "date": "2025-02-13",
      "city": "Cannes",
      "country": "France",
      "themes": ["AI", "Ethics", "Business"],
      "lat": 43.5528,
      "lng": 7.0174,
      "Link": "https://worldaicanes.com/"
    },
    {
      "event": "AI Expo Africa (AIIM) 2025",
      "date": "2025-10-29",
      "city": "Johannesburg",
      "country": "South Africa",
      "themes": ["AI", "Innovation", "Startups"],
      "lat": -26.2041,
      "lng": 28.0473,
      "Link": "https://aiexpoafrica.com/"
    },
    {
      "event": "CVPR 2025",
      "date": "2025-06-17",
      "city": "Vancouver",
      "country": "Canada",
      "themes": ["Computer Vision", "AI Research"],
      "lat": 49.2827,
      "lng": -123.1207,
      "Link": "https://cvpr.thecvf.com/Conferences/2025"
    },
    {
      "event": "ICML 2025",
      "date": "2025-07-20",
      "city": "Vancouver",
      "country": "Canada",
      "themes": ["Machine Learning", "AI Research"],
      "lat": 49.2827,
      "lng": -123.1207,
      "Link": "https://icml.cc/Conferences/2025"
    },
    {
      "event": "ICLR 2025",
      "date": "2025-05-05",
      "city": "Vienna",
      "country": "Austria",
      "themes": ["AI Research", "Deep Learning"],
      "lat": 48.2082,
      "lng": 16.3738,
      "Link": "https://iclr.cc/Conferences/2025"
    },
    {
      "event": "AAAI 2025",
      "date": "2025-02-25",
      "city": "Philadelphia",
      "country": "USA",
      "themes": ["AI Research", "NLP"],
      "lat": 39.9526,
      "lng": -75.1652,
      "Link": "https://aaai.org/conference/aaai-25/"
    },
    {
      "event": "KDD 2025",
      "date": "2025-08-24",
      "city": "Long Beach",
      "country": "USA",
      "themes": ["Data Science", "AI Research"],
      "lat": 33.7701,
      "lng": -118.1937,
      "Link": "https://kdd.org/kdd2025/"
    },
    {
      "event": "World Summit AI Amsterdam 2025",
      "date": "2025-10-08",
      "city": "Amsterdam",
      "country": "Netherlands",
      "themes": ["AI", "Enterprise", "Ethics"],
      "lat": 52.3676,
      "lng": 4.9041,
      "Link": "https://worldsummit.ai/"
    },
    {
      "event": "World Summit AI Americas 2025",
      "date": "2025-04-09",
      "city": "Montréal",
      "country": "Canada",
      "themes": ["AI", "Enterprise", "Policy"],
      "lat": 45.5019,
      "lng": -73.5674,
      "Link": "https://americas.worldsummit.ai/"
    },
    {
      "event": "AI for Good Global Summit 2025",
      "date": "2025-05-29",
      "city": "Geneva",
      "country": "Switzerland",
      "themes": ["AI", "Sustainability", "Policy"],
      "lat": 46.2044,
      "lng": 6.1432,
      "Link": "https://aiforgood.itu.int/summit25/"
    },
    {
      "event": "AI Infra Summit 2025",
      "date": "2025-09-09",
      "city": "Santa Clara",
      "country": "USA",
      "themes": ["AI", "Hardware", "Chips", "Data Center"],
      "lat": 37.3541,
      "lng": -121.9552,
      "Link": "https://ai-infra-summit.com/events/ai-infra-summit"
    },
    {
      "event": "SIGGRAPH 2025",
      "date": "2025-07-27",
      "city": "Los Angeles",
      "country": "USA",
      "themes": ["Graphics", "AI", "XR"],
      "lat": 34.0522,
      "lng": -118.2437,
      "Link": "https://s2025.siggraph.org/"
    },
    {
      "event": "Google Cloud Next ’25",
      "date": "2025-04-07",
      "city": "Las Vegas",
      "country": "USA",
      "themes": ["Cloud", "AI", "Data"],
      "lat": 36.1699,
      "lng": -115.1398,
      "Link": "https://cloud.withgoogle.com/next"
    },
    {
      "event": "Microsoft Build 2025",
      "date": "2025-05-20",
      "city": "Seattle",
      "country": "USA",
      "themes": ["Developers", "AI", "Cloud"],
      "lat": 47.6062,
      "lng": -122.3321,
      "Link": "https://build.microsoft.com/"
    },
    {
      "event": "Apple WWDC25",
      "date": "2025-06-09",
      "city": "Cupertino",
      "country": "USA",
      "themes": ["Developers", "AI", "Platforms"],
      "lat": 37.3229,
      "lng": -122.0322,
      "Link": "https://developer.apple.com/wwdc25/"
    },
    {
      "event": "Web Summit Lisbon 2025",
      "date": "2025-11-03",
      "city": "Lisbon",
      "country": "Portugal",
      "themes": ["AI", "Startups", "Tech"],
      "lat": 38.7223,
      "lng": -9.1393,
      "Link": "https://websummit.com/"
    },
    {
      "event": "Mobile World Congress (MWC) Barcelona 2025",
      "date": "2025-03-03",
      "city": "Barcelona",
      "country": "Spain",
      "themes": ["Mobile", "AI", "5G", "IoT"],
      "lat": 41.3851,
      "lng": 2.1734,
      "Link": "https://www.mwcbarcelona.com/"
    },
    {
      "event": "SXSW 2025 – AI Track",
      "date": "2025-03-07",
      "city": "Austin",
      "country": "USA",
      "themes": ["AI", "Startups", "Media", "Culture"],
      "lat": 30.2672,
      "lng": -97.7431,
      "Link": "https://www.sxsw.com/"
    },
    {
      "event": "RSA Conference 2025",
      "date": "2025-04-28",
      "city": "San Francisco",
      "country": "USA",
      "themes": ["Cybersecurity", "AI", "Privacy"],
      "lat": 37.7749,
      "lng": -122.4194,
      "Link": "https://www.rsaconference.com/usa"
    },
    {
      "event": "Black Hat USA 2025",
      "date": "2025-08-02",
      "city": "Las Vegas",
      "country": "USA",
      "themes": ["Cybersecurity", "Hacking", "AI"],
      "lat": 36.1699,
      "lng": -115.1398,
      "Link": "https://www.blackhat.com/us-25/"
    },
    {
      "event": "DEF CON 33",
      "date": "2025-08-07",
      "city": "Las Vegas",
      "country": "USA",
      "themes": ["Security", "Hacking", "AI"],
      "lat": 36.1699,
      "lng": -115.1398,
      "Link": "https://defcon.org/"
    },
    {
      "event": "Google I/O 2025",
      "date": "2025-05-14",
      "city": "Mountain View",
      "country": "USA",
      "themes": ["Developers", "AI", "Android", "Web"],
      "lat": 37.3861,
      "lng": -122.0839,
      "Link": "https://io.google/"
    },
    {
      "event": "ACL 2025",
      "date": "2025-07-27",
      "city": "Bangkok",
      "country": "Thailand",
      "themes": ["NLP", "AI Research", "Linguistics"],
      "lat": 13.7563,
      "lng": 100.5018,
      "Link": "https://2025.aclweb.org/"
    },
    {
      "event": "INTERSPEECH 2025",
      "date": "2025-09-07",
      "city": "Bremen",
      "country": "Germany",
      "themes": ["Speech", "AI", "Audio Processing"],
      "lat": 53.0793,
      "lng": 8.8017,
      "Link": "https://www.interspeech2025.org/"
    },
    {
      "event": "ICASSP 2025",
      "date": "2025-04-06",
      "city": "Hyderabad",
      "country": "India",
      "themes": ["Signal Processing", "AI", "Acoustics"],
      "lat": 17.3850,
      "lng": 78.4867,
      "Link": "https://2025.ieeeicassp.org/"
    },
    {
      "event": "The AI Summit London 2025",
      "date": "2025-06-11",
      "city": "London",
      "country": "UK",
      "themes": ["AI", "Enterprise", "Cloud"],
      "lat": 51.5074,
      "lng": -0.1278,
      "Link": "https://london.theaisummit.com/"
    },
    {
      "event": "AI & Big Data Expo North America 2025",
      "date": "2025-06-04",
      "city": "Santa Clara",
      "country": "USA",
      "themes": ["AI", "Big Data", "IoT"],
      "lat": 37.3541,
      "lng": -121.9552,
      "Link": "https://www.ai-expo.net/northamerica/"
    },
    {
      "event": "AI & Big Data Expo Europe 2025",
      "date": "2025-10-01",
      "city": "Amsterdam",
      "country": "Netherlands",
      "themes": ["AI", "Big Data", "IoT"],
      "lat": 52.3676,
      "lng": 4.9041,
      "Link": "https://www.ai-expo.net/europe/"
    },
    {
      "event": "NVIDIA GTC 2025",
      "date": "2025-03-24",
      "city": "San Jose",
      "country": "USA",
      "themes": ["AI", "Accelerated Computing", "Robotics", "Graphics"],
      "lat": 37.3382,
      "lng": -121.8863,
      "Link": "https://www.nvidia.com/gtc/"
    },
    {
      "event": "NeurIPS 2025",
      "date": "2025-12-08",
      "city": "Vancouver",
      "country": "Canada",
      "themes": ["AI Research", "Machine Learning", "Neuroscience"],
      "lat": 49.2827,
      "lng": -123.1207,
      "Link": "https://neurips.cc/Conferences/2025"
    },
    {
      "event": "ACM Multimedia (ACM MM) 2025",
      "date": "2025-10-27",
      "city": "Brisbane",
      "country": "Australia",
      "themes": ["AI", "Multimedia", "Vision"],
      "lat": -27.4698,
      "lng": 153.0251,
      "Link": "https://www.acmmm2025.org/"
    },
    {
      "event": "ICAPS 2025",
      "date": "2025-06-16",
      "city": "Prague",
      "country": "Czech Republic",
      "themes": ["AI Research", "Planning", "Scheduling"],
      "lat": 50.0755,
      "lng": 14.4378,
      "Link": "https://icaps25.icaps-conference.org/"
    },
    {
      "event": "The Web Conference (WWW) 2025",
      "date": "2025-04-28",
      "city": "Sydney",
      "country": "Australia",
      "themes": ["Web", "AI", "Data", "Security"],
      "lat": -33.8688,
      "lng": 151.2093,
      "Link": "https://www2025.thewebconf.org/"
    },
    {
      "event": "CHI 2025",
      "date": "2025-04-26",
      "city": "Yokohama",
      "country": "Japan",
      "themes": ["HCI", "AI", "UX", "Design"],
      "lat": 35.4437,
      "lng": 139.6380,
      "Link": "https://chi2025.acm.org/"
    },
    {
      "event": "ICSE 2025",
      "date": "2025-05-04",
      "city": "Ottawa",
      "country": "Canada",
      "themes": ["Software Engineering", "AI Tools"],
      "lat": 45.4215,
      "lng": -75.6972,
      "Link": "https://conf.researchr.org/home/icse-2025"
    },
    {
      "event": "AWE USA 2025 (Augmented World Expo)",
      "date": "2025-06-17",
      "city": "Long Beach",
      "country": "USA",
      "themes": ["XR", "AI", "Spatial Computing", "Metaverse"],
      "lat": 33.7701,
      "lng": -118.1937,
      "Link": "https://www.awexr.com/usa-2025"
    },
    {
      "event": "KubeCon + CloudNativeCon Europe 2025",
      "date": "2025-04-01",
      "city": "London",
      "country": "UK",
      "themes": ["Cloud Native", "AI", "Open Source", "Kubernetes"],
      "lat": 51.5074,
      "lng": -0.1278,
      "Link": "https://events.linuxfoundation.org/kubecon-cloudnativecon-europe/"
    },
    {
      "event": "KubeCon + CloudNativeCon North America 2025",
      "date": "2025-11-17",
      "city": "San Diego",
      "country": "USA",
      "themes": ["Cloud Native", "AI", "Open Source", "Kubernetes"],
      "lat": 32.7157,
      "lng": -117.1611,
      "Link": "https://events.linuxfoundation.org/kubecon-cloudnativecon-north-america/"
    },
    {
      "event": "SEMICON West 2025",
      "date": "2025-07-08",
      "city": "San Francisco",
      "country": "USA",
      "themes": ["Semiconductors", "AI Hardware", "Manufacturing"],
      "lat": 37.7749,
      "lng": -122.4194,
      "Link": "https://www.semiconwest.org/"
    },
    {
      "event": "OpenAI DevDay 2025",
      "date": "2025-10-06",
      "city": "San Francisco",
      "country": "USA",
      "themes": ["Developers", "AI", "API", "LLM"],
      "lat": 37.7749,
      "lng": -122.4194,
      "Link": "https://openai.com/index/announcing-devday-2025/"
    },
    {
      "event": "LEAP 2026",
      "date": "2026-03-02",
      "city": "Riyadh",
      "country": "Saudi Arabia",
      "themes": ["Tech", "AI", "Innovation", "Startups"],
      "lat": 24.7136,
      "lng": 46.6753,
      "Link": "https://www.onegiantleap.com/"
    },
    {
      "event": "Step Conference 2026",
      "date": "2026-02-11",
      "city": "Dubai",
      "country": "UAE",
      "themes": ["Startups", "Fintech", "AI", "Media"],
      "lat": 25.2048,
      "lng": 55.2708,
      "Link": "https://dubai.stepconference.com/"
    },
    {
      "event": "GISEC Global 2026",
      "date": "2026-04-21",
      "city": "Dubai",
      "country": "UAE",
      "themes": ["Cybersecurity", "AI", "InfoSec"],
      "lat": 25.2048,
      "lng": 55.2708,
      "Link": "https://www.gisec.ae/"
    },
    {
      "event": "Expand North Star 2025",
      "date": "2025-10-13",
      "city": "Dubai",
      "country": "UAE",
      "themes": ["Startups", "Venture Capital", "AI", "Web3"],
      "lat": 25.0970,
      "lng": 55.1557,
      "Link": "https://www.expandnorthstar.com/"
    },
    {
      "event": "Future Blockchain Summit 2025",
      "date": "2025-10-13",
      "city": "Dubai",
      "country": "UAE",
      "themes": ["Blockchain", "Web3", "Crypto", "Metaverse"],
      "lat": 25.2217,
      "lng": 55.2831,
      "Link": "https://www.futureblockchainsummit.com/"
    },
    {
      "event": "FINTECH SURGE 2025",
      "date": "2025-10-14",
      "city": "Dubai",
      "country": "UAE",
      "themes": ["Fintech", "Paytech", "Insurtech", "AI"],
      "lat": 25.2217,
      "lng": 55.2831,
      "Link": "https://www.fintechsurge.com/"
    },
    {
      "event": "Web Summit Qatar 2025",
      "date": "2025-03-03",
      "city": "Doha",
      "country": "Qatar",
      "themes": ["Tech", "Startups", "AI", "Investment"],
      "lat": 25.2854,
      "lng": 51.5310,
      "Link": "https://qatar.websummit.com/"
    },
    {
      "event": "CES 2026",
      "date": "2026-01-06",
      "city": "Las Vegas",
      "country": "USA",
      "themes": ["Consumer Electronics", "AI", "Automotive", "Healthtech"],
      "lat": 36.1699,
      "lng": -115.1398,
      "Link": "https://www.ces.tech/"
    },
    {
      "event": "MWC Las Vegas 2025",
      "date": "2025-10-28",
      "city": "Las Vegas",
      "country": "USA",
      "themes": ["Mobile", "5G", "Connectivity", "AI"],
      "lat": 36.1699,
      "lng": -115.1398,
      "Link": "https://www.mwclasvegas.com/"
    },
    {
      "event": "Collision 2025",
      "date": "2025-06-23",
      "city": "Toronto",
      "country": "Canada",
      "themes": ["Tech", "Startups", "SaaS", "AI"],
      "lat": 43.6532,
      "lng": -79.3832,
      "Link": "https://collisionconf.com/"
    },
    {
      "event": "Web Summit Rio 2025",
      "date": "2025-04-29",
      "city": "Rio de Janeiro",
      "country": "Brazil",
      "themes": ["Tech", "Startups", "AI", "SaaS"],
      "lat": -22.9068,
      "lng": -43.1729,
      "Link": "https://rio.websummit.com/"
    },
    {
      "event": "RISE 2025",
      "date": "2025-03-11",
      "city": "Hong Kong",
      "country": "Hong Kong",
      "themes": ["Tech", "Asia", "Startups", "AI"],
      "lat": 22.3193,
      "lng": 114.1694,
      "Link": "https://riseconf.com/"
    },
    {
      "event": "Slush 2025",
      "date": "2025-11-20",
      "city": "Helsinki",
      "country": "Finland",
      "themes": ["Startups", "Venture Capital", "Tech"],
      "lat": 60.1699,
      "lng": 24.9384,
      "Link": "https://www.slush.org/"
    },
    {
      "event": "The Next Web (TNW) Conference 2025",
      "date": "2025-06-19",
      "city": "Amsterdam",
      "country": "Netherlands",
      "themes": ["Tech", "Future", "AI", "Startups"],
      "lat": 52.3676,
      "lng": 4.9041,
      "Link": "https://thenextweb.com/conference"
    },
    {
      "event": "TechCrunch Disrupt 2025",
      "date": "2025-10-28",
      "city": "San Francisco",
      "country": "USA",
      "themes": ["Startups", "Venture Capital", "AI", "SaaS"],
      "lat": 37.7749,
      "lng": -122.4194,
      "Link": "https://techcrunch.com/events/disrupt/"
    },
    {
      "event": "IFA Berlin 2025",
      "date": "2025-09-05",
      "city": "Berlin",
      "country": "Germany",
      "themes": ["Consumer Electronics", "Home Appliances", "AI"],
      "lat": 52.5200,
      "lng": 13.4050,
      "Link": "https://www.ifa-berlin.com/"
    },
    {
      "event": "Computex 2025",
      "date": "2025-05-20",
      "city": "Taipei",
      "country": "Taiwan",
      "themes": ["Computing", "Hardware", "AI", "IoT"],
      "lat": 25.0330,
      "lng": 121.5654,
      "Link": "https://www.computextaipei.com.tw/"
    },
    {
      "event": "AWS re:Invent 2025",
      "date": "2025-12-01",
      "city": "Las Vegas",
      "country": "USA",
      "themes": ["Cloud", "AI", "Developers", "AWS"],
      "lat": 36.1699,
      "lng": -115.1398,
      "Link": "https://reinvent.awsevents.com/"
    },
    {
      "event": "Dreamforce 2025",
      "date": "2025-09-16",
      "city": "San Francisco",
      "country": "USA",
      "themes": ["CRM", "AI", "Cloud", "Salesforce"],
      "lat": 37.7749,
      "lng": -122.4194,
      "Link": "https://www.salesforce.com/dreamforce/"
    },
    {
      "event": "Oracle CloudWorld 2025",
      "date": "2025-09-22",
      "city": "Las Vegas",
      "country": "USA",
      "themes": ["Cloud", "Database", "AI", "Enterprise"],
      "lat": 36.1699,
      "lng": -115.1398,
      "Link": "https://www.oracle.com/cloudworld/"
    },
    {
      "event": "SAP Sapphire Orlando 2025",
      "date": "2025-05-12",
      "city": "Orlando",
      "country": "USA",
      "themes": ["Enterprise", "Cloud", "ERP", "AI"],
      "lat": 28.5383,
      "lng": -81.3792,
      "Link": "https://www.sap.com/events/sapphire.html"
    },
    {
      "event": "Cisco Live US 2025",
      "date": "2025-06-02",
      "city": "Las Vegas",
      "country": "USA",
      "themes": ["Networking", "Security", "Cloud", "AI"],
      "lat": 36.1699,
      "lng": -115.1398,
      "Link": "https://www.ciscolive.com/global.html"
    },
    {
      "event": "Cisco Live EMEA 2025",
      "date": "2025-02-03",
      "city": "Amsterdam",
      "country": "Netherlands",
      "themes": ["Networking", "Security", "Cloud", "AI"],
      "lat": 52.3676,
      "lng": 4.9041,
      "Link": "https://www.ciscolive.com/emea.html"
    },
    {
      "event": "VMware Explore US 2025",
      "date": "2025-08-25",
      "city": "Las Vegas",
      "country": "USA",
      "themes": ["Cloud", "Virtualization", "AI", "Multi-Cloud"],
      "lat": 36.1699,
      "lng": -115.1398,
      "Link": "https://www.vmware.com/explore/us.html"
    },
    {
      "event": "VMware Explore Europe 2025",
      "date": "2025-11-03",
      "city": "Barcelona",
      "country": "Spain",
      "themes": ["Cloud", "Virtualization", "AI", "Multi-Cloud"],
      "lat": 41.3851,
      "lng": 2.1734,
      "Link": "https://www.vmware.com/explore/eu.html"
    },
    {
      "event": "Red Hat Summit 2025",
      "date": "2025-04-28",
      "city": "Boston",
      "country": "USA",
      "themes": ["Open Source", "Cloud", "AI", "Linux"],
      "lat": 42.3601,
      "lng": -71.0589,
      "Link": "https://www.redhat.com/en/summit"
    },
    {
      "event": "Meta Connect 2025",
      "date": "2025-10-01",
      "city": "Burlingame",
      "country": "USA",
      "themes": ["XR", "Metaverse", "AI", "Developers"],
      "lat": 37.5775,
      "lng": -122.3483,
      "Link": "https://www.metaconnect.com/"
    },
    {
      "event": "HIMSS Global Health Conference 2025",
      "date": "2025-03-03",
      "city": "Las Vegas",
      "country": "USA",
      "themes": ["Healthtech", "Healthcare IT", "AI", "Data"],
      "lat": 36.1699,
      "lng": -115.1398,
      "Link": "https://www.himss.org/global-conference"
    },
    {
      "event": "BIO International Convention 2025",
      "date": "2025-06-02",
      "city": "Boston",
      "country": "USA",
      "themes": ["Biotechnology", "Pharma", "Healthtech", "AI"],
      "lat": 42.3601,
      "lng": -71.0589,
      "Link": "https://www.bio.org/events/bio-international-convention"
    },
    {
      "event": "Money 20/20 USA 2025",
      "date": "2025-10-26",
      "city": "Las Vegas",
      "country": "USA",
      "themes": ["Fintech", "Payments", "AI", "Blockchain"],
      "lat": 36.1699,
      "lng": -115.1398,
      "Link": "https://www.money2020.com/us"
    },
    {
      "event": "Money 20/20 Europe 2025",
      "date": "2025-06-03",
      "city": "Amsterdam",
      "country": "Netherlands",
      "themes": ["Fintech", "Payments", "AI", "Banking"],
      "lat": 52.3676,
      "lng": 4.9041,
      "Link": "https://europe.money2020.com/"
    },
    {
      "event": "Sibos 2025",
      "date": "2025-09-29",
      "city": "Frankfurt",
      "country": "Germany",
      "themes": ["Finance", "Banking", "Fintech", "AI"],
      "lat": 50.1109,
      "lng": 8.6821,
      "Link": "https://www.sibos.com/"
    },
    {
      "event": "Game Developers Conference (GDC) 2025",
      "date": "2025-03-17",
      "city": "San Francisco",
      "country": "USA",
      "themes": ["Gaming", "Game Development", "AI", "Graphics"],
      "lat": 37.7749,
      "lng": -122.4194,
      "Link": "https://gdconf.com/"
    },
    {
      "event": "Gamescom 2025",
      "date": "2025-08-20",
      "city": "Cologne",
      "country": "Germany",
      "themes": ["Gaming", "Esports", "Game Development"],
      "lat": 50.9375,
      "lng": 6.9603,
      "Link": "https://www.gamescom.global/"
    },
    {
      "event": "NAB Show 2025",
      "date": "2025-04-05",
      "city": "Las Vegas",
      "country": "USA",
      "themes": ["Broadcasting", "Media", "Production", "AI"],
      "lat": 36.1699,
      "lng": -115.1398,
      "Link": "https://nabshow.com/2025/"
    },
    {
      "event": "InfoComm 2025",
      "date": "2025-06-07",
      "city": "Orlando",
      "country": "USA",
      "themes": ["Pro AV", "Audio", "Display", "Collaboration"],
      "lat": 28.5383,
      "lng": -81.3792,
      "Link": "https://www.infocommshow.org/"
    },
    {
      "event": "ICRA 2025",
      "date": "2025-05-17",
      "city": "Atlanta",
      "country": "USA",
      "themes": ["Robotics", "Automation", "AI Research"],
      "lat": 33.7490,
      "lng": -84.3880,
      "Link": "https://www.ieee-ras.org/conferences-workshops/fully-sponsored/icra"
    },
    {
      "event": "IROS 2025",
      "date": "2025-10-06",
      "city": "New Orleans",
      "country": "USA",
      "themes": ["Robotics", "Intelligent Systems", "AI Research"],
      "lat": 29.9511,
      "lng": -90.0715,
      "Link": "https://ieee-iros.org/2025/"
    },
    {
      "event": "Gartner IT Symposium/Xpo Orlando 2025",
      "date": "2025-10-20",
      "city": "Orlando",
      "country": "USA",
      "themes": ["IT Leadership", "Strategy", "AI", "Cybersecurity"],
      "lat": 28.5383,
      "lng": -81.3792,
      "Link": "https://www.gartner.com/en/conferences/na/symposium-us"
    },
    {
      "event": "Gartner IT Symposium/Xpo Barcelona 2025",
      "date": "2025-11-10",
      "city": "Barcelona",
      "country": "Spain",
      "themes": ["IT Leadership", "Strategy", "AI", "Cybersecurity"],
      "lat": 41.3851,
      "lng": 2.1734,
      "Link": "https://www.gartner.com/en/conferences/emea/symposium-spain"
    },
    {
      "event": "Dublin Tech Summit 2025",
      "date": "2025-05-28",
      "city": "Dublin",
      "country": "Ireland",
      "themes": ["Tech", "AI", "SaaS", "Startups"],
      "lat": 53.3498,
      "lng": -6.2603,
      "Link": "https://dublintechsummit.tech/"
    },
    {
      "event": "London Tech Week 2025",
      "date": "2025-06-16",
      "city": "London",
      "country": "UK",
      "themes": ["Tech", "Innovation", "AI", "Startups"],
      "lat": 51.5074,
      "lng": -0.1278,
      "Link": "https://londontechweek.com/"
    },
    {
      "event": "Vivatechnology 2025",
      "date": "2025-06-11",
      "city": "Paris",
      "country": "France",
      "themes": ["Tech", "Innovation", "Startups", "AI"],
      "lat": 48.8566,
      "lng": 2.3522,
      "Link": "https://vivatechnology.com/"
    },
    {
      "event": "Grace Hopper Celebration 2025",
      "date": "2025-09-24",
      "city": "Philadelphia",
      "country": "USA",
      "themes": ["Women in Tech", "Computing", "AI", "Career"],
      "lat": 39.9526,
      "lng": -75.1652,
      "Link": "https://ghc.anitab.org/"
    },
    {
      "event": "Embedded World 2025",
      "date": "2025-03-11",
      "city": "Nuremberg",
      "country": "Germany",
      "themes": ["Embedded Systems", "IoT", "Hardware", "AI"],
      "lat": 49.4521,
      "lng": 11.0767,
      "Link": "https://www.embedded-world.de/en"
    },
    {
      "event": "Hannover Messe 2025",
      "date": "2025-03-31",
      "city": "Hannover",
      "country": "Germany",
      "themes": ["Industry 4.0", "Automation", "Robotics", "AI"],
      "lat": 52.3759,
      "lng": 9.7320,
      "Link": "https://www.hannovermesse.de/en/"
    },
    {
      "event": "IoT Solutions World Congress 2025",
      "date": "2025-05-13",
      "city": "Barcelona",
      "country": "Spain",
      "themes": ["IoT", "Digital Transformation", "AI", "Industry"],
      "lat": 41.3851,
      "lng": 2.1734,
      "Link": "https://www.iotsworldcongress.com/"
    },
    {
      "event": "EMNLP 2025",
      "date": "2025-11-19",
      "city": "Miami",
      "country": "USA",
      "themes": ["NLP", "AI Research", "Machine Learning"],
      "lat": 25.7617,
      "lng": -80.1918,
      "Link": "https://2025.emnlp.org/"
    },
    {
      "event": "Open Source Summit North America 2025",
      "date": "2025-06-16",
      "city": "Vancouver",
      "country": "Canada",
      "themes": ["Open Source", "Linux", "Cloud", "AI"],
      "lat": 49.2827,
      "lng": -123.1207,
      "Link": "https://events.linuxfoundation.org/open-source-summit-north-america/"
    },
    {
      "event": "Open Source Summit Europe 2025",
      "date": "2025-09-22",
      "city": "Bilbao",
      "country": "Spain",
      "themes": ["Open Source", "Linux", "Cloud", "AI"],
      "lat": 43.2630,
      "lng": -2.9350,
      "Link": "https://events.linuxfoundation.org/open-source-summit-europe/"
    },
    {
      "event": "CES 2025",
      "date": "2025-01-07",
      "city": "Las Vegas",
      "country": "USA",
      "themes": ["Consumer Electronics", "AI", "Automotive", "Healthtech"],
      "lat": 36.1699,
      "lng": -115.1398,
      "Link": "https://www.ces.tech/"
    }
  ]
}
